[{"model": "mountains.resortcompany", "pk": 1, "fields": {"company_name": "EPIC", "website_link": "https://www.epicpass.com/"}}, {"model": "mountains.location", "pk": 1, "fields": {"latitude": "48.302353", "longitude": "-117.5640", "state": "Washington", "city": "Stevens County", "country": "United States", "country_code": "us"}}, {"model": "mountains.mountain", "pk": 1, "fields": {"name": "49 Degrees North", "website_link": "", "location": 1, "resort_company": 1}}, {"model": "mountains.location", "pk": 2, "fields": {"latitude": "44.854332", "longitude": "-92.79063", "state": "Minnesota", "city": "Washington County", "country": "United States", "country_code": "us"}}, {"model": "mountains.mountain", "pk": 2, "fields": {"name": "Afton Alps", "website_link": "", "location": 2, "resort_company": 1}}, {"model": "mountains.location", "pk": 3, "fields": {"latitude": "39.148201", "longitude": "-120.1509", "state": "California", "city": "Placer County", "country": "United States", "country_code": "us"}}, {"model": "mountains.mountain", "pk": 3, "fields": {"name": "Alpine Meadows", "website_link": "", "location": 3, "resort_company": 1}}, {"model": "mountains.location", "pk": 4, "fields": {"latitude": "41.114666", "longitude": "-75.22602", "state": "Pennsylvania", "city": "Price Township", "country": "United States", "country_code": "us"}}, {"model": "mountains.mountain", "pk": 4, "fields": {"name": "Alpine Mountain", "website_link": "", "location": 4, "resort_company": 1}}, {"model": "mountains.location", "pk": 5, "fields": {"latitude": "41.526939", "longitude": "-81.25988", "state": "Ohio", "city": "Geauga County", "country": "United States", "country_code": "us"}}, {"model": "mountains.mountain", "pk": 5, "fields": {"name": "Alpine Valley", "website_link": "", "location": 5, "resort_company": 1}}]