[{"name": "49 Degrees North", "location": {"latitude": "48.302353", "longitude": "-117.5640", "state": "Washington", "state_code": "WA", "city": "Stevens County", "country": "United States", "country_code": "us"}}, {"name": "Afton Alps", "location": {"latitude": "44.854332", "longitude": "-92.79063", "state": "Minnesota", "state_code": "MN", "city": "Washington County", "country": "United States", "country_code": "us"}}, {"name": "Alpine Meadows", "location": {"latitude": "39.148201", "longitude": "-120.1509", "state": "California", "state_code": "CA", "city": "Placer County", "country": "United States", "country_code": "us"}}, {"name": "Alpine Mountain", "location": {"latitude": "41.114666", "longitude": "-75.22602", "state": "Pennsylvania", "state_code": "PA", "city": "Price Township", "country": "United States", "country_code": "us"}}, {"name": "Alpine Valley", "location": {"latitude": "41.526939", "longitude": "-81.25988", "state": "Ohio", "state_code": "OH", "city": "Geauga County", "country": "United States", "country_code": "us"}}]